[ {
  "name" : "Kalem",
  "type" : "italian",
  "items" : null,
  "status" : "open",
  "location" : {
    "latitude" : 45.2539,
    "longitude" : 19.8489,
    "address" : {
      "address" : "Bulevar Mihajla Pupina",
      "number" : 0,
      "city" : {
        "city" : "Novi Sad",
        "state" : {
          "state" : "Serbia",
          "id" : 0
        },
        "zipCode" : 21000.0
      }
    }
  },
  "imgPath" : "./images/kalem.png"
}, {
  "name" : "Petrus",
  "type" : "italian",
  "items" : null,
  "status" : "open",
  "location" : {
    "latitude" : 45.2544,
    "longitude" : 19.8471,
    "address" : {
      "address" : "Modene",
      "number" : 0,
      "city" : {
        "city" : "Novi Sad",
        "state" : {
          "state" : "Serbia",
          "id" : 0
        },
        "zipCode" : 21000.0
      }
    }
  },
  "imgPath" : "./images/petrus.png"
}, {
  "name" : "Ma≈°a",
  "type" : "italian",
  "items" : null,
  "status" : "open",
  "location" : {
    "latitude" : 45.2406,
    "longitude" : 19.624,
    "address" : {
      "address" : "Zmaj Jovina 4",
      "number" : 0,
      "city" : {
        "city" : "Novi Sad",
        "state" : {
          "state" : "Serbia",
          "id" : 0
        },
        "zipCode" : 21000.0
      }
    }
  },
  "imgPath" : "./images/masa.png"
} ]
